{"type": "FeatureCollection", "features": [{"type": "Feature", "geometry": {"type": "Point", "coordinates": [106.6959322, 10.7843233]}, "properties": {"Address": "167 Hai B\u00e0 Tr\u01b0ng, Ph\u01b0\u1eddng 6, Qu\u1eadn 3", "name": "Novotel Saigon Centre"}}, {"type": "Feature", "geometry": {"type": "Point", "coordinates": [106.6905032, 10.7752209]}, "properties": {"Address": "204 Nguy\u1ec5n Th\u1ecb Minh Khai, Ph\u01b0\u1eddng 6, Qu\u1eadn 3", "name": "Saigon Star Hotel"}}, {"type": "Feature", "geometry": {"type": "Point", "coordinates": [106.681839, 10.7838814]}, "properties": {"Address": "14/5Bis K\u1ef3 \u0110\u1ed3ng, Ph\u01b0\u1eddng 9, Qu\u1eadn 3", "name": "Mi\u1ebfn g\u00e0 K\u1ef3 \u0110\u1ed3ng"}}, {"type": "Feature", "geometry": {"type": "Point", "coordinates": [106.702136, 10.788696]}, "properties": {"Address": "5C5 Nguy\u1ec5n \u0110\u00ecnh Chi\u1ec3u, Ph\u01b0\u1eddng \u0110a Kao, Qu\u1eadn 1, \u0110a Kao, Qu\u1eadn 1", "name": "Qu\u00e1n N\u01b0\u1edbng \u0110aKao"}}, {"type": "Feature", "geometry": {"type": "Point", "coordinates": [106.6890025, 10.7930798]}, "properties": {"Address": "10 \u0110\u1eb7ng T\u1ea5t, T\u00e2n \u0110\u1ecbnh, Qu\u1eadn 1", "name": "Cuc Gach Quan Restaurant"}}, {"type": "Feature", "geometry": {"type": "Point", "coordinates": [106.6907662, 10.7852236]}, "properties": {"Address": "238 Pasteur, Ph\u01b0\u1eddng 6, Qu\u1eadn 3", "name": "Au Lac Do Brazil"}}, {"type": "Feature", "geometry": {"type": "Point", "coordinates": [106.690678, 10.7971505]}, "properties": {"Address": "V\u00f2ng xoay Tr\u1ea7n Kh\u1eafc Ch\u00e2n, Ph\u01b0\u1eddng 7, Ph\u00fa Nhu\u1eadn", "name": "Pizza Hut Phan X\u00edch Long"}}, {"type": "Feature", "geometry": {"type": "Point", "coordinates": [106.6991045, 10.7860416]}, "properties": {"Address": "H\u1ebbm 18 Bis Nguy\u1ec5n Th\u1ecb Minh Khai, \u0110a Kao, Qu\u1eadn 1", "name": "Hoa Vi\u00ean Brauhaus Minh Khai"}}, {"type": "Feature", "geometry": {"type": "Point", "coordinates": [106.6996526, 10.7773723]}, "properties": {"Address": "160 Pasteur, B\u1ebfn Ngh\u00e9, Qu\u1eadn 1", "name": "Ngon Restaurant"}}, {"type": "Feature", "geometry": {"type": "Point", "coordinates": [106.6811285, 10.7918576]}, "properties": {"Address": "11 Nguy\u1ec5n V\u0103n Tr\u1ed7i, Ph\u01b0\u1eddng 14, Ph\u00fa Nhu\u1eadn", "name": "Restaurant Ngoc Suong Marina Boat"}}, {"type": "Feature", "geometry": {"type": "Point", "coordinates": [106.7086158, 10.7904555]}, "properties": {"Address": "54 Hu\u1ef3nh M\u1eabn \u0110\u1ea1t, B\u00ecnh Th\u1ea1nh", "name": "Qu\u00e1n T\u00fd \u1ed0c"}}, {"type": "Feature", "geometry": {"type": "Point", "coordinates": [106.689379, 10.78336]}, "properties": {"Address": "13 T\u00fa X\u01b0\u01a1ng, Ph\u01b0\u1eddng 7, Qu\u1eadn 3", "name": "Kobe Teppanyaki"}}, {"type": "Feature", "geometry": {"type": "Point", "coordinates": [106.692195, 10.786299]}, "properties": {"Address": "64 Ph\u1ea1m Ng\u1ecdc Th\u1ea1ch, Ph\u01b0\u1eddng 6, Qu\u1eadn 3", "name": "Nh\u00e0 H\u00e0ng L\u1ea9u Soa Soa"}}, {"type": "Feature", "geometry": {"type": "Point", "coordinates": [106.693736, 10.785956]}, "properties": {"Address": "195 \u0110i\u1ec7n Bi\u00ean Ph\u1ee7, Ph\u01b0\u1eddng 6, Qu\u1eadn 3", "name": "Dine Viva"}}, {"type": "Feature", "geometry": {"type": "Point", "coordinates": [106.6893631, 10.7865221]}, "properties": {"Address": "258 Pasteur, 3", "name": "Nh\u00e0 H\u00e0ng Th\u00e1i Vi\u1ec7t"}}, {"type": "Feature", "geometry": {"type": "Point", "coordinates": [106.6848672, 10.7868225]}, "properties": {"Address": "123 L\u00fd Ch\u00ednh Th\u1eafng, Ph\u01b0\u1eddng 7, Qu\u1eadn 3", "name": "Callary Wedding & Events - Trung t\u00e2m Ti\u1ec7c c\u01b0\u1edbi v\u00e0 H\u1ed9i ngh\u1ecb Callary"}}, {"type": "Feature", "geometry": {"type": "Point", "coordinates": [106.69631, 10.795057]}, "properties": {"Address": "42 \u0110inh Ti\u00ean Ho\u00e0ng, Ph\u01b0\u1eddng 1, B\u00ecnh Th\u1ea1nh", "name": "C\u00f4ng Ty C\u1ed5 Ph\u1ea7n C\u00f4ng Ngh\u1ec7 S\u1ed1 L\u00ea V\u0169"}}, {"type": "Feature", "geometry": {"type": "Point", "coordinates": [106.696059, 10.7999742]}, "properties": {"Address": "127-127N, \u0110inh Ti\u00ean Ho\u00e0ng, Ph\u01b0\u1eddng 3, B\u00ecnh Th\u1ea1nh", "name": "KFC \u0110inh Ti\u00ean Ho\u00e0ng"}}, {"type": "Feature", "geometry": {"type": "Point", "coordinates": [106.696604, 10.7872029]}, "properties": {"Address": "207B \u0110\u01b0\u1eddng Nguy\u1ec5n V\u0103n Th\u1ee7, \u0110a Kao, Qu\u1eadn 1", "name": "\u0110\u00f4ng Ba - Hu\u1ebf Beef Noodle"}}, {"type": "Feature", "geometry": {"type": "Point", "coordinates": [106.6986116, 10.7892713]}, "properties": {"Address": "57 \u0110inh Ti\u00ean Ho\u00e0ng, \u0110a Kao, Qu\u1eadn 1", "name": "M\u00ec Qu\u1ea3ng Ngon Ph\u1ed1 Th\u1ecb"}}]}